{
    "stores": [
        {
            "id": "1",
            "name": "릴리케이크카페",
            "category": "케이크",
            "address": "부산광역시 수영구 수영로388번길 25-11",
            "tel": 1038225509,
            "lat": "35.143449",
            "lng": "129.107838"
        },
        {
            "id": "2",
            "name": "이앤디스튜디오",
            "category": "케이크",
            "address": "부산광역시 수영구 수영로540번길 26",
            "lat": "35.155941",
            "lng": "129.114189"
        },
        {
            "id": "3",
            "name": "오감베이커리",
            "category": "빵",
            "address": "부산광역시 연제구 연산동 353-4",
            "tel": 519966600,
            "lat": "35.195775",
            "lng": "129.10117"
        },
        {
            "id": "4",
            "name": "자연도소금빵",
            "category": "빵",
            "address": "부산광역시 해운대구 달맞이길62번길 12-1",
            "tel": 517412245,
            "lat": "35.163987",
            "lng": "129.171001"
        },
        {
            "id": "5",
            "name": "연의양과",
            "category": ["구움과자","타르트"],
            "address": "부산광역시 부산진구 동천로 56 1층",
            "tel": 518040923,
            "lat": "35.153847",
            "lng": "129.062751"
        },
        {
            "id": "6",
            "name": "바게트 제작소",
            "category": "빵",
            "address": "부산광역시 부산진구 전포대로199번길 19",
            "lat": "35.154654",
            "lng": "129.064103"
        },
        {
            "id": "7",
            "name": "고메",
            "category": ["타르트","케이크"],
            "address": "부산광역시 부산진구 서전로46번길 90 카페 gourmet 메리온시티 1층",
            "tel": 1087791809,
            "lat": "35.154238",
            "lng": "129.064808"
        },
        {
            "id": "8",
            "name": "화이트콩",
            "category": "케이크",
            "address": "부산광역시 사하구 당리동 341-45",
            "tel": 512910403,
            "lat": "35.101646",
            "lng": "128.977797"
        },
        {
            "id": "9",
            "name": "오븐의 온도",
            "category": "구움과자",
            "address": "부산광역시 부산진구 서전로38번길 43-13 101호",
            "tel": 50713485179,
            "lat": "35.156133",
            "lng": "129.064566"
        },
        {
            "id": "10",
            "name": "젤라송 부산송도점",
            "category": "기타",
            "address": "부산광역시 서구 암남동 등대로 9 송도유림 스카이오션 더퍼스트 301동 102호",
            "tel": 50714102302,
            "lat": "35.076386",
            "lng": "129.023868"
        }
    ]
}